City,Cloudiness,Country,Date,Humidity,Lat,Lng,Max Temp,Wind Speed
Challakere,0,IN,1553305198,37,14.31,76.65,81.68,5.41
Cape Town,0,ZA,1553304768,77,-33.93,18.42,70.0,11.41
Puerto Ayora,0,EC,1553304641,78,-0.74,-90.35,82.4,6.93
Albany,90,US,1553304901,74,42.65,-73.75,37.99,21.92
Tasiilaq,68,GL,1553302200,55,65.61,-37.64,8.6,9.17
Antalaha,76,MG,1553305199,94,-14.9,50.28,77.45,7.65
Tessalit,92,ML,1553305199,16,20.2,1.01,66.38,9.44
Yulara,0,AU,1553302800,12,-25.24,130.99,96.8,14.99
Aswan,0,EG,1553302800,51,24.09,32.9,75.2,6.93
Chicama,20,PE,1553302800,83,-7.84,-79.15,69.8,11.41
Namatanai,24,PG,1553305200,100,-3.66,152.44,83.03,0.6
Marrakesh,0,MA,1553302800,38,31.63,-7.99,60.8,2.24
Busselton,0,AU,1553304916,40,-33.64,115.35,66.0,13.24
Kavieng,8,PG,1553305201,100,-2.57,150.8,82.4,7.87
Zhangjiakou,0,CN,1553304958,71,40.77,114.88,29.48,6.08
Novo Oriente,92,BR,1553305201,98,-5.54,-40.77,69.26,3.4
Ushuaia,90,AR,1553302800,93,-54.81,-68.31,46.4,8.05
Port Elizabeth,1,US,1553305199,69,39.31,-74.98,44.6,6.93
Dikson,64,RU,1553305201,100,73.51,80.55,1.04,19.06
Arraial do Cabo,75,BR,1553302800,78,-22.97,-42.02,73.4,4.7
Port Alfred,68,ZA,1553304949,95,-33.59,26.89,66.0,1.01
Ocala,1,US,1553304936,62,29.19,-82.14,64.4,5.82
Peniche,0,PT,1553305084,75,39.36,-9.38,59.0,2.24
Rikitea,88,PF,1553305202,100,-23.12,-134.97,78.35,18.84
Cravo Norte,32,CO,1553305202,84,6.3,-70.2,77.36,2.95
Bogorodskoye,12,RU,1553305203,54,52.37,140.44,18.68,5.08
Mar del Plata,88,AR,1553304907,70,-46.43,-67.52,60.44,14.36
Dubbo,36,AU,1553302800,43,-32.25,148.6,87.8,16.11
Kieta,56,PG,1553305112,94,-6.22,155.63,83.21,3.96
Byron Bay,0,AU,1553305094,55,-28.65,153.62,86.0,4.7
Castro,75,CL,1553302800,100,-42.48,-73.76,53.6,11.41
Pisco,0,PE,1553302800,83,-13.71,-76.2,69.8,16.11
Faanui,56,PF,1553305204,100,-16.48,-151.75,85.1,6.98
Bongandanga,64,CD,1553304934,88,1.51,21.07,75.38,2.95
Mataura,64,NZ,1553305204,48,-46.19,168.86,76.82,5.19
Punta Arenas,75,CL,1553304787,87,-53.16,-70.91,50.0,11.41
Rawson,56,AR,1553305204,53,-43.3,-65.11,61.52,10.0
Christchurch,0,NZ,1553304784,64,-43.53,172.64,69.8,8.05
Biak,44,ID,1553305205,81,-0.91,122.88,85.55,2.62
Nikolskoye,0,RU,1553305125,74,59.7,30.79,32.0,4.47
Carnarvon,56,ZA,1553305205,67,-30.97,22.13,49.46,3.51
Nipawin,1,CA,1553302800,86,53.36,-104.02,37.4,9.17
Ancud,75,CL,1553302800,100,-41.87,-73.83,53.6,11.41
Walvis Bay,0,NA,1553302800,87,-22.95,14.51,61.0,6.93
Muisne,48,EC,1553304962,90,0.61,-80.02,72.05,2.73
Neryungri,36,RU,1553305206,57,56.66,124.71,14.9,7.09
Dourbali,0,TD,1553305206,65,11.81,15.86,73.58,2.95
Semenivka,68,UA,1553305206,67,52.18,32.58,33.35,20.07
Berlevag,68,NO,1553305207,100,70.86,29.09,31.37,21.74
Vaini,0,IN,1553302800,40,15.34,74.49,69.8,4.18
Jamestown,100,AU,1553305207,67,-33.21,138.6,73.22,12.91
Norman Wells,90,CA,1553302800,79,65.28,-126.83,23.0,5.64
Gorontalo,20,ID,1553305207,69,0.54,123.06,85.82,2.62
Saskylakh,36,RU,1553305207,85,71.97,114.09,-2.93,17.05
Clyde River,90,CA,1553302800,75,70.47,-68.59,-18.41,6.93
Bluff,0,AU,1553305208,50,-23.58,149.07,90.32,8.21
New Norfolk,75,AU,1553305042,53,-42.78,147.06,73.0,11.41
Domna,40,RU,1553302800,53,51.9,113.16,23.0,11.18
Saldanha,0,PT,1553305208,81,41.42,-6.55,30.92,2.73
Margate,75,AU,1553304916,53,-43.03,147.26,73.0,11.41
Moyale,0,ET,1553305208,50,3.52,39.05,64.13,5.75
College,90,US,1553304613,42,64.86,-147.8,46.4,9.17
Whitehorse,75,CA,1553303709,35,60.72,-135.06,55.99,6.93
Butaritari,88,KI,1553305208,100,3.07,172.79,77.18,2.62
Hobart,75,AU,1553305095,53,-42.88,147.33,73.0,11.41
Hermanus,12,ZA,1553304656,88,-34.42,19.24,63.0,10.0
Caravelas,100,BR,1553304963,100,-17.73,-39.27,79.43,20.29
Upernavik,20,GL,1553304933,100,72.79,-56.15,-13.91,6.64
Iqaluit,75,CA,1553304762,67,63.75,-68.52,-22.01,2.62
Shimoda,75,JP,1553302800,70,34.7,138.93,51.8,23.04
East London,92,ZA,1553305209,100,-33.02,27.91,73.67,20.29
Maniitsoq,0,GL,1553305209,100,65.42,-52.9,-12.02,8.99
Bull Savanna,68,JM,1553305210,79,17.89,-77.59,71.15,1.95
Talnakh,0,RU,1553305210,66,69.49,88.39,-0.86,3.74
Sunrise Manor,1,US,1553304904,24,36.21,-115.07,69.8,9.17
Lima,0,PE,1553305208,78,-12.06,-77.04,71.6,11.41
San Pedro,0,AR,1553304915,77,-33.68,-59.66,59.0,3.06
Itagi,92,BR,1553305211,97,-14.16,-40.01,71.6,2.28
Cayenne,20,GF,1553302800,74,4.94,-52.33,80.6,8.05
Teahupoo,20,PF,1553304783,66,-17.83,-149.27,87.8,13.87
Morros,40,BR,1553302800,88,-2.87,-44.04,78.8,8.05
Pangnirtung,32,CA,1553305212,54,66.15,-65.72,-19.4,5.75
San Quintin,0,PH,1553305212,49,17.54,120.52,85.28,3.74
Bilibino,0,RU,1553304952,67,68.06,166.44,9.23,3.18
Meulaboh,20,ID,1553305212,100,4.14,96.13,82.67,4.07
Geraldton,5,CA,1553302800,45,49.72,-86.95,23.0,2.84
Pratapgarh,0,IN,1553305213,66,25.92,82.0,69.35,10.78
Honiara,32,SB,1553305213,86,-9.43,159.96,81.23,1.39
Torbay,90,CA,1553305073,80,47.66,-52.73,37.99,19.46
Constitucion,40,MX,1553302440,12,23.99,-104.67,69.8,14.99
Kapaa,40,US,1553305103,61,22.08,-159.32,80.6,17.22
Cabedelo,20,BR,1553302800,83,-6.97,-34.84,82.4,5.82
Nogliki,44,RU,1553305213,98,51.8,143.14,18.23,15.7
Puteyets,24,RU,1553305213,91,65.17,57.09,24.17,5.19
Champerico,75,MX,1553301660,64,16.38,-93.6,75.2,14.99
Atherton,75,GB,1553305211,87,53.52,-2.49,48.2,4.7
Ostrovnoy,64,RU,1553305214,83,68.05,39.51,20.66,19.06
Tabou,24,CI,1553305214,100,4.42,-7.36,82.31,10.45
Chara,75,GR,1553302200,87,39.42,22.43,46.4,2.62
Teknaf,0,BD,1553305214,68,20.86,92.31,83.39,2.62
Santa Barbara,1,US,1553304947,72,34.42,-119.7,60.8,6.93
Haines Junction,24,CA,1553305215,60,60.75,-137.51,40.37,2.06
Mayumba,92,GA,1553305215,100,-3.44,10.65,76.82,10.78
Banda Aceh,12,ID,1553305168,70,5.56,95.32,85.91,2.73
Kepno,0,PL,1553305068,9,51.28,17.99,41.0,2.84
Te Anau,24,NZ,1553304938,48,-45.41,167.72,71.51,3.62
Orikum,0,AL,1553305215,96,40.33,19.47,58.82,0.94
Bambous Virieux,40,MU,1553305141,94,-20.34,57.76,77.0,1.12
Narsaq,44,GL,1553302200,85,60.91,-46.05,23.0,4.7
Kristinehamn,92,SE,1553305209,93,59.31,14.11,46.4,17.22
Hilo,90,US,1553305208,61,19.71,-155.08,78.8,11.41
Derzhavinsk,92,KZ,1553305216,91,51.1,66.31,36.77,3.74
Waingapu,44,ID,1553305216,78,-9.65,120.26,84.29,13.35
Faya,0,SA,1553302800,58,18.39,42.45,60.8,6.93
Cranbrook,20,CA,1553302800,26,49.51,-115.76,60.8,3.36
Kodiak,1,US,1553305108,7,39.95,-94.76,53.6,3.36
Saint-Philippe,90,CA,1553305211,93,45.36,-73.48,37.4,23.04
Tuktoyaktuk,75,CA,1553302800,70,69.44,-133.03,-0.41,13.87
Filingue,8,NE,1553305217,20,14.35,3.32,75.02,11.12
Maryville,1,US,1553305108,7,40.35,-94.87,53.6,3.36
Los Llanos de Aridane,90,ES,1553304903,59,28.66,-17.92,64.4,18.34
Kogon,75,UZ,1553302800,87,39.73,64.54,50.0,9.17
Isangel,75,VU,1553302800,66,-19.55,169.27,87.8,6.93
Dovolnoye,8,RU,1553305218,64,54.5,79.67,16.88,3.18
SIM,92,BR,1553305218,98,-12.25,-38.93,70.7,4.97
Naze,40,NG,1553302800,94,5.43,7.07,77.0,6.53
Dwarka,0,IN,1553304608,59,28.58,77.04,79.0,9.17
Comarapa,44,BO,1553305218,97,-17.91,-64.53,51.98,2.39
Inta,88,RU,1553305218,90,66.04,60.13,27.86,6.42
Mahon,75,IE,1553302800,86,51.89,-8.4,39.2,3.36
Anchorage,75,US,1553305217,61,61.22,-149.89,48.2,6.93
Yarovoye,0,RU,1553305219,85,52.92,78.56,30.83,5.97
Iisalmi,0,FI,1553302200,63,63.56,27.19,30.2,16.11
Ust-Ilimsk,56,RU,1553304975,63,57.96,102.73,29.3,10.0
Bredasdorp,24,ZA,1553304640,93,-34.53,20.04,63.0,2.24
Longyearbyen,75,NO,1553302200,79,78.22,15.63,23.0,10.29
Barrow,0,AR,1553305220,65,-38.31,-60.23,60.98,12.57
Richards Bay,80,ZA,1553305220,99,-28.77,32.06,67.1,2.17
Mayo,20,CA,1553302800,33,63.59,-135.9,57.2,4.7
Zhigansk,68,RU,1553304934,72,66.77,123.37,12.2,10.67
Wufeng,75,TW,1553305213,82,24.63,121.12,64.99,25.28
Cabo San Lucas,5,MX,1553304920,56,22.89,-109.91,73.4,8.05
Tiksi,12,RU,1553305220,70,71.64,128.87,12.74,4.41
Hithadhoo,48,MV,1553305220,98,-0.6,73.08,86.09,5.3
Espinosa,88,BR,1553305221,97,-14.92,-42.81,67.91,7.2
Abha,0,SA,1553302800,58,18.22,42.5,60.8,6.93
Mao,75,DO,1553304962,69,19.55,-71.08,80.6,4.7
Terney,20,RU,1553305221,89,45.05,136.61,28.94,11.01
Mossendjo,80,CG,1553305221,98,-2.95,12.72,70.34,2.28
North Bend,75,US,1553304921,93,43.41,-124.22,53.01,5.82
Sakiai,0,LT,1553302200,74,54.95,23.04,28.4,1.12
Souillac,0,FR,1553305204,65,45.6,-0.6,48.2,2.24
Luanda,75,AO,1553302800,83,-8.83,13.24,78.8,6.93
Airai,8,TL,1553305222,57,-8.93,125.41,84.56,2.62
Taybad,64,IR,1553305222,100,34.74,60.78,33.8,3.96
Cap Malheureux,40,MU,1553305141,94,-19.98,57.61,77.0,1.12
Chipurupalle,0,IN,1553305222,76,18.32,83.57,80.69,2.95
Qaanaaq,20,GL,1553305222,92,77.48,-69.36,-29.57,9.33
Lebu,20,ET,1553299200,52,8.96,38.73,64.4,10.29
Changji,64,CN,1553305222,77,32.07,116.17,54.05,4.63
Lodja,56,CD,1553305223,98,-3.52,23.6,69.62,2.95
Necochea,0,AR,1553304989,71,-38.55,-58.74,60.01,1.01
Chervona Sloboda,76,UA,1553305223,84,50.74,33.96,31.1,17.49
Rio Gallegos,90,AR,1553302800,87,-51.62,-69.22,51.8,4.7
Mahebourg,40,MU,1553304840,94,-20.41,57.7,77.0,1.12
Half Moon Bay,90,US,1553304969,93,37.46,-122.43,57.2,13.87
Kudahuvadhoo,0,MV,1553305223,99,2.67,72.89,84.74,9.44
Kahta,0,TR,1553304000,75,37.78,38.62,48.0,2.28
Tautira,20,PF,1553304783,66,-17.73,-149.15,87.8,13.87
Sakaiminato,90,JP,1553304789,80,35.55,133.23,45.0,4.7
Hilotongan,12,PH,1553305224,100,11.14,123.64,81.59,12.12
Tyrma,48,RU,1553305224,45,50.04,132.17,18.05,6.31
Nchelenge,68,ZM,1553305224,100,-9.35,28.74,65.3,3.62
Port Hawkesbury,90,CA,1553305213,93,45.62,-61.36,42.01,12.75
Innisfail,40,CA,1553302800,83,52.02,-113.95,42.8,4.7
Agartala,20,BD,1553302800,94,23.83,91.28,69.8,3.96
Amambai,0,BR,1553305225,93,-23.11,-55.23,65.57,3.4
Aykhal,56,RU,1553305225,65,65.95,111.51,1.49,12.8
Cidreira,56,BR,1553305225,99,-30.17,-50.22,63.5,10.67
Nome,1,US,1553305209,48,30.04,-94.42,66.99,3.36
Tiarei,20,PF,1553304783,66,-17.53,-149.33,87.8,13.87
Harper,90,US,1553305222,56,30.3,-99.24,69.8,11.41
San Cristobal,40,EC,1553304653,87,-0.39,-78.55,57.2,5.82
Mogadishu,0,SO,1553305226,99,2.04,45.34,81.95,20.18
Ryabovo,44,RU,1553305202,10,60.34,28.99,27.0,3.96
Kashan,0,IR,1553302800,71,33.99,51.44,44.6,1.61
Lompoc,75,US,1553305125,76,34.64,-120.46,60.8,10.29
Sur,0,OM,1553305226,100,22.57,59.53,70.25,10.67
Verkhnevilyuysk,76,RU,1553305227,87,63.45,120.31,22.55,3.62
Sao Filipe,44,CV,1553305227,100,14.9,-24.5,69.35,14.14
Berdigestyakh,76,RU,1553304936,73,62.1,126.7,14.81,5.86
Tual,0,ID,1553305227,96,-5.67,132.75,85.28,12.24
Thompson,40,CA,1553302800,48,55.74,-97.86,42.8,9.17
Hami,0,CN,1553305227,53,42.84,93.51,43.7,5.19
Bethel,1,US,1553302560,65,60.79,-161.76,44.6,12.75
Avarua,100,CK,1553302800,79,-21.21,-159.78,86.0,5.82
Bayir,0,TR,1553302200,93,37.27,28.22,45.0,3.36
Ambilobe,32,MG,1553305228,93,-13.19,49.05,72.14,3.06
Georgetown,20,GY,1553302800,83,6.8,-58.16,78.8,11.41
Neuquen,0,AR,1553302800,72,-38.95,-68.06,62.6,6.98
Arroyo,90,US,1553305223,86,41.39,-78.88,30.2,17.22
Chuy,36,UY,1553305107,89,-33.69,-53.46,62.15,7.09
Bonavista,92,CA,1553304628,89,48.65,-53.11,30.0,7.0
Kavaratti,0,IN,1553305118,100,10.57,72.64,83.75,9.66
Cherskiy,0,RU,1553304937,68,68.75,161.3,7.43,2.95
Ashland,20,US,1553305205,56,38.48,-82.64,45.0,7.09
Abu Kamal,92,SY,1553305230,92,34.45,40.92,50.27,7.65
Namibe,0,AO,1553305230,100,-15.19,12.15,77.72,4.41
Saint George,75,GR,1553302200,87,39.45,22.34,46.4,2.62
Ocos,90,GT,1553301600,70,14.51,-92.19,84.2,1.95
Ponta do Sol,92,BR,1553305063,94,-20.63,-46.0,64.58,10.45
Hasaki,75,JP,1553302942,86,35.73,140.83,42.8,6.93
Chokurdakh,0,RU,1553305230,85,70.62,147.9,-2.75,8.99
Khrebtovaya,68,RU,1553305230,64,56.71,104.25,29.48,10.22
Broome,24,GB,1553304975,93,52.47,1.45,48.99,8.05
Marawi,0,PH,1553304712,78,8.0,124.29,80.01,5.99
Kawalu,20,ID,1553305231,80,-7.38,108.21,78.08,2.62
Bayan,0,MN,1553305231,41,47.25,107.54,32.36,7.65
Alberton,0,ZA,1553305225,77,-26.25,28.13,64.99,3.36
Inhambupe,92,BR,1553305231,98,-11.79,-38.36,71.33,7.09
Kaitangata,24,NZ,1553305231,83,-46.28,169.85,64.85,8.99
Sitka,88,US,1553304624,74,37.17,-99.65,53.01,5.99
Aklavik,90,CA,1553302800,66,68.22,-135.01,15.8,13.87
Selty,56,RU,1553305232,80,57.31,52.14,19.31,4.41
Mangai,36,CD,1553305232,93,-4.07,19.59,74.48,2.39
Banjar,80,ID,1553305161,87,-7.37,108.54,79.25,3.74
Tuyen Quang,100,VN,1553305232,95,21.82,105.22,70.25,5.64
Merzifon,0,TR,1553302200,86,40.87,35.46,30.2,2.51
Komsomolskiy,88,RU,1553304939,82,67.55,63.78,18.59,2.95
Katsuura,75,JP,1553304221,46,33.93,134.5,50.0,13.87
Seka,64,ET,1553305233,94,7.6,36.72,55.13,2.51
La Ronge,5,CA,1553302800,88,55.1,-105.3,50.0,3.36
Carballo,0,ES,1553305204,100,43.21,-8.69,52.0,6.93
Labytnangi,80,RU,1553305233,82,66.66,66.39,18.95,2.95
Portland,90,US,1553304682,81,45.52,-122.67,55.99,6.93
Deputatskiy,0,RU,1553305233,77,69.3,139.9,-5.36,3.74
Ribeira Grande,92,PT,1553305234,99,38.52,-28.7,60.8,12.68
Lagoa,0,PT,1553305050,76,37.14,-8.45,57.99,8.05
Waitati,48,NZ,1553304753,72,-45.75,170.57,66.0,13.0
Murgab,75,TM,1553302800,87,37.5,61.97,42.8,9.17
Praia da Vitoria,40,PT,1553304711,82,38.73,-27.07,60.8,19.39
Samarinda,36,ID,1553305235,72,-0.5,117.14,87.17,2.95
Baruun-Urt,0,MN,1553305235,43,46.68,113.28,30.11,15.82
Mangrol,0,IN,1553305235,32,25.33,76.51,71.42,6.42
Katastarion,0,GR,1553304655,65,37.83,20.77,55.0,12.12
Olinda,75,EC,1553303836,70,-2.03,-79.75,84.2,2.24
Nytva,90,RU,1553302800,100,57.94,55.33,30.2,6.71
Kasongo-Lunda,76,CD,1553305235,95,-6.48,16.82,68.45,2.51
Bushehr,40,IR,1553302800,68,28.97,50.84,66.2,6.93
Dunedin,48,NZ,1553304753,72,-45.87,170.5,66.0,13.0
Dalaba,68,GN,1553305236,78,10.69,-12.25,70.43,2.39
Srednekolymsk,8,RU,1553305236,63,67.46,153.71,17.33,4.52
Huarmey,8,PE,1553305061,79,-10.07,-78.15,65.57,3.18
Gat,56,SN,1553302800,88,14.69,-16.54,66.2,11.41
Mattru,64,SL,1553305236,84,7.62,-11.83,78.26,2.95
Kushima,75,JP,1553304786,47,31.5,131.29,55.4,9.17
Green River,1,US,1553302440,64,41.53,-109.47,35.6,9.17
Cururupu,100,BR,1553305237,92,-1.82,-44.87,77.63,3.96
Lexington,1,US,1553305205,45,38.05,-84.5,44.6,6.93
Ukiah,90,US,1553304981,81,39.15,-123.21,55.0,4.7
Vagur,48,FO,1553305237,100,61.47,-6.81,44.33,51.16
Shahreza,0,IR,1553305237,58,32.01,51.87,13.01,2.62
Dalhousie,76,IN,1553305238,43,32.54,75.98,45.5,2.06
Sonamura,20,IN,1553302800,94,23.47,91.27,69.8,4.29
Batemans Bay,56,AU,1553305168,82,-35.71,150.18,77.0,14.0
Ilulissat,0,GL,1553302200,42,69.22,-51.1,-11.21,6.93
Khatanga,12,RU,1553305065,79,71.98,102.47,-12.56,9.66
Bonthe,44,SL,1553305238,89,7.53,-12.5,79.7,4.97
Lahij,76,YE,1553305238,93,13.06,44.88,69.08,3.62
Gupitan,0,PH,1553305238,59,7.78,125.64,81.95,3.4
Camacha,40,PT,1553302800,63,33.08,-16.33,60.8,12.75
Zabaykalsk,0,CN,1553305239,32,49.64,117.33,29.75,13.24
Salalah,75,OM,1553302200,74,17.01,54.1,78.8,6.93
Nanortalik,48,GL,1553305239,96,60.14,-45.24,31.82,29.46
Grindavik,90,IS,1553304698,92,63.84,-22.43,30.99,36.91
Sorland,92,NO,1553304959,100,67.67,12.69,38.03,33.38
Yar-Sale,76,RU,1553305091,89,66.83,70.83,20.75,9.1
Atuona,32,PF,1553305425,99,-9.8,-139.03,82.58,15.82
Machinga,56,MW,1553305239,100,-15.18,35.3,67.28,3.06
Dalnerechensk,76,RU,1553305240,61,45.93,133.72,25.79,4.97
Erenhot,0,CN,1553305240,46,43.65,111.97,33.08,14.58
Vestmannaeyjar,0,IS,1553305240,92,63.44,-20.27,36.95,30.91
Leua,20,AO,1553305240,76,-11.65,20.45,65.93,2.28
Benidorm,40,ES,1553304979,58,38.54,-0.13,57.99,2.24
Slave Lake,1,CA,1553302800,56,55.28,-114.77,42.8,3.36
Fort Nelson,20,CA,1553302800,26,58.81,-122.69,60.8,2.24
Bosaso,12,SO,1553305069,100,11.28,49.18,74.93,10.22
Vila Velha,56,BR,1553304517,100,-3.71,-38.6,81.0,1.01
Hun,75,BE,1553305240,100,50.34,4.87,48.0,6.93
Manama,20,AE,1553305154,53,25.33,56.02,78.01,6.93
Kruisfontein,32,ZA,1553305241,86,-34.0,24.73,64.85,8.43
Filadelfia,100,PY,1553305241,76,-22.35,-60.04,75.2,6.31
Hovd,75,NO,1553305215,86,63.83,10.7,43.0,6.93
Jaunjelgava,8,LV,1553305165,95,56.62,25.08,27.0,2.84
Lata,20,IN,1553305242,55,30.78,78.62,45.05,2.17
Omsukchan,36,RU,1553305242,80,62.53,155.8,18.68,6.2
Lorengau,44,PG,1553305242,97,-2.02,147.27,83.48,10.0
Nuevo Progreso,90,US,1553305239,64,26.05,-97.95,73.4,16.11
Nichinan,75,JP,1553304786,47,31.65,131.31,55.4,9.17
Sambava,68,MG,1553305242,100,-14.27,50.17,81.23,12.8
Poquoson,1,US,1553305208,65,37.12,-76.35,48.99,17.22
Caramay,12,PH,1553305243,90,10.18,119.24,83.66,13.8
Noumea,44,NC,1553302800,58,-22.28,166.46,87.8,5.82
Nenjiang,0,CN,1553305243,32,49.17,125.23,26.51,8.66
Carutapera,92,BR,1553304930,91,-1.2,-46.02,78.71,6.08
Brewster,90,US,1553305083,70,41.76,-70.08,43.0,12.75
Bathsheba,40,BB,1553302800,78,13.22,-59.52,78.8,19.46
Vilhena,80,BR,1553305228,96,-12.74,-60.15,70.97,2.17
Esperance,75,TT,1553304906,88,10.24,-61.45,80.01,5.82
Sinnamary,92,GF,1553305243,94,5.38,-52.96,79.88,13.69
Bintulu,75,MY,1553302800,83,3.17,113.03,84.2,3.36
Inhambane,8,MZ,1553305244,100,-23.87,35.38,74.57,8.77
Magnor,90,SE,1553305204,93,59.95,12.2,42.01,9.17
Plouzane,90,FR,1553305087,93,48.38,-4.62,46.99,4.7
Paamiut,8,GL,1553304989,100,61.99,-49.67,19.85,23.87
Mount Gambier,75,AU,1553302800,68,-37.83,140.78,69.8,16.11
Itarema,44,BR,1553305244,100,-2.92,-39.92,74.21,2.17
Roald,48,NO,1553305204,93,62.58,6.12,42.8,40.26
Ust-Maya,0,RU,1553305244,51,60.42,134.54,7.52,3.74
Touros,20,BR,1553302800,88,-5.2,-35.46,80.6,3.36
Xining,0,CN,1553305245,57,36.62,101.77,32.63,1.16
Udachnyy,44,RU,1553305245,56,66.42,112.4,1.58,7.99
Buin,0,CL,1553305146,35,-33.73,-70.74,78.01,8.05
Victoria,75,BN,1553302800,83,5.28,115.24,82.4,4.41
Tocopilla,0,CL,1553305207,100,-22.09,-70.2,59.72,0.83
Namtsy,0,RU,1553302800,64,62.72,129.66,-2.21,2.24
Kiruna,48,SE,1553302200,81,67.86,20.23,32.0,19.46
Fortuna,40,ES,1553304933,58,38.18,-1.13,59.0,2.24
Sankheda,0,IN,1553302800,68,22.21,73.58,66.2,4.7
Nelson Bay,0,AU,1553305243,57,-32.72,152.14,82.0,5.82
Dongsheng,92,CN,1553305246,82,29.72,112.52,54.5,4.63
Lasa,0,CY,1553304696,66,34.92,32.53,53.6,10.29
Progress,0,RU,1553305247,42,49.74,129.68,22.55,8.55
Lakes Entrance,76,AU,1553304607,60,-37.88,147.99,72.0,5.99
Srivardhan,0,IN,1553305247,81,18.03,73.02,75.92,5.41
Aasiaat,12,GL,1553305247,100,68.71,-52.87,-8.6,2.73
Awbari,32,LY,1553305247,38,26.59,12.77,45.77,2.95
Mokhsogollokh,56,RU,1553305247,65,61.4,128.95,14.18,5.86
Katobu,0,ID,1553305247,91,-4.94,122.53,85.01,3.96
Riyadh,0,SA,1553302800,55,24.63,46.72,62.6,3.36
Abeche,0,TD,1553305248,30,13.83,20.83,68.81,5.64
Mundo Nuevo,0,CL,1553302800,93,-32.72,-71.41,55.4,6.93
Teya,5,MX,1553304706,53,21.05,-89.07,75.2,4.7
Tarauaca,48,BR,1553305248,96,-8.16,-70.77,72.95,1.72
Adrar,0,DZ,1553302800,38,27.87,-0.29,59.0,6.93
Rocha,56,UY,1553305248,92,-34.48,-54.34,56.12,2.95
Phan Thiet,24,VN,1553305205,80,10.93,108.1,85.1,8.43
Lavrentiya,92,RU,1553305248,100,65.58,-170.99,15.8,19.06
Palmer,40,AU,1553305243,68,-34.85,139.16,78.01,9.17
Coquimbo,90,CL,1553302800,87,-29.95,-71.34,57.2,4.7
Atambua,0,ID,1553305249,90,-9.11,124.89,84.83,11.68
Pangkalanbuun,20,ID,1553305131,86,-2.68,111.62,85.82,5.64
Santiago del Estero,92,AR,1553305249,73,-27.8,-64.26,69.53,4.63
The Pas,1,CA,1553302800,45,53.82,-101.24,48.2,8.05
Smolenka,0,PL,1553304602,94,54.15,22.76,30.0,2.95
Port Blair,0,IN,1553305250,100,11.67,92.75,82.58,7.87
Tura,36,IN,1553305250,81,25.52,90.21,69.08,4.29
Amazar,20,RU,1553305250,38,53.86,120.88,25.25,3.96
Miraflores,36,CO,1553305250,100,5.2,-73.14,49.46,0.38
Avera,1,US,1553305106,30,33.19,-82.53,64.4,6.93
Tuatapere,48,NZ,1553305251,70,-46.13,167.69,67.28,4.52
Leh,36,IN,1553305251,78,34.16,77.58,-6.53,1.95
Waipawa,8,NZ,1553305097,65,-39.94,176.59,70.0,1.01
Shelburne,90,CA,1553305217,68,44.08,-80.2,28.4,20.8
Bud,80,NO,1553304670,93,62.91,6.91,42.8,40.26
Severo-Kurilsk,88,RU,1553305252,95,50.68,156.12,32.18,9.33
Padang,20,ID,1553302800,83,-0.92,100.36,80.6,1.12
Bukachacha,20,RU,1553305252,43,52.99,116.91,24.35,4.63
Aksu,0,KZ,1553302800,100,52.04,76.93,23.0,4.47
Krasnovishersk,0,RU,1553305253,71,60.4,57.08,15.98,2.84
Beringovskiy,76,RU,1553305134,90,63.05,179.32,7.43,29.01
Verkhoyansk,32,RU,1553305253,58,67.55,133.39,4.28,3.74
Iranshahr,8,IR,1553305253,74,27.21,60.69,56.12,2.51
Grimshaw,75,CA,1553302800,46,56.19,-117.61,50.0,3.36
Ahipara,68,NZ,1553305253,73,-35.17,173.16,73.04,5.08
Khudumelapye,0,BW,1553305253,60,-23.91,24.95,68.27,16.04
Yumen,32,CN,1553305254,48,40.29,97.04,39.92,2.84
Sosnogorsk,88,RU,1553305254,91,63.59,53.93,29.12,4.18
Grand-Santi,0,GF,1553305254,82,4.27,-54.38,76.64,4.41
Alta Floresta,64,BR,1553305254,92,-9.87,-56.08,77.18,1.72
Vysokogornyy,48,RU,1553305254,52,50.1,139.13,13.82,3.96
Yellowknife,75,CA,1553305184,74,62.45,-114.38,28.4,11.41
Sabang,48,PH,1553305165,77,13.72,123.58,82.58,8.99
Gravdal,92,NO,1553305210,75,59.79,5.78,44.6,21.92
Provideniya,92,RU,1553305255,100,64.42,-173.23,15.62,13.02
Kendari,20,ID,1553305255,88,-3.99,122.52,85.64,3.74
Vao,48,EE,1553305255,83,59.1,26.19,25.61,8.32
Sorong,32,ID,1553305243,100,-0.86,131.25,82.13,6.31
Ontario,1,US,1553305251,55,34.07,-117.65,66.2,11.41
Kalmunai,0,LK,1553305072,84,7.42,81.82,82.94,4.18
Kerman,0,IR,1553302800,65,30.29,57.06,41.0,4.7
Chumikan,0,RU,1553305256,52,54.72,135.31,15.53,8.99
General Pico,0,AR,1553305256,71,-35.66,-63.75,62.69,12.24
Belaya Gora,0,RU,1553305256,93,68.54,146.19,-1.94,4.18
Turbat,32,PK,1553305257,72,26.0,63.05,64.4,2.95
Bolobo,76,CD,1553305257,100,-2.17,16.23,70.88,2.73
Mehamn,88,NO,1553305257,87,71.03,27.85,31.91,20.96
Okha,12,RU,1553305222,98,53.59,142.95,10.58,17.6
Methoni,0,GR,1553302200,100,36.82,21.7,46.4,8.05
Manacapuru,20,BR,1553302800,88,-3.3,-60.62,80.6,3.36
Pundaguitan,12,PH,1553305257,95,6.37,126.17,81.77,2.95
Vila Franca do Campo,75,PT,1553305255,87,37.72,-25.43,57.2,6.93
Jeremie,68,HT,1553305258,100,18.65,-74.12,75.83,4.41
Mwene-Ditu,56,CD,1553305258,98,-7.01,23.45,65.66,4.97
Ayan,0,TR,1553305258,77,40.67,33.6,19.49,2.39
Timra,88,SE,1553305010,70,62.49,17.33,43.0,6.93
Makushino,56,RU,1553305258,71,55.21,67.25,20.66,3.4
Tunoshna,90,RU,1553302800,100,57.55,40.13,30.2,6.71
Great Yarmouth,64,GB,1553305007,93,52.61,1.73,50.0,8.05
Sindor,80,RU,1553305259,89,62.87,51.9,28.13,2.62
Sao Lourenco do Sul,80,BR,1553305079,97,-31.37,-51.98,60.17,5.53
Hambantota,20,LK,1553303400,100,6.12,81.12,75.2,1.12
Yarkovo,24,RU,1553302800,85,54.81,82.6,23.0,6.71
Presidencia Roque Saenz Pena,0,AR,1553305259,64,-26.79,-60.44,64.31,7.99
Hay River,20,CA,1553302800,74,60.82,-115.79,33.8,10.29
Moron,0,VE,1553305248,91,10.49,-68.2,66.56,2.51
Qurbus,40,TN,1553302800,82,36.82,10.57,57.2,5.82
Iguai,92,BR,1553305259,99,-14.76,-40.09,69.8,2.62
Saint-Joseph,0,FR,1553305084,30,43.56,6.97,57.99,5.82
Vardo,20,US,1553304935,48,39.62,-77.74,41.0,25.28
Manokwari,36,ID,1553305260,100,-0.87,134.08,80.78,6.64
Brigantine,20,US,1553305256,86,39.41,-74.36,43.0,12.75
Owosso,1,US,1553305003,59,43.0,-84.18,33.8,10.29
Nabire,32,ID,1553305260,80,-3.36,135.5,79.52,2.73
Liverpool,20,GB,1553305233,76,53.41,-2.98,48.2,5.82
Salta,90,AR,1553302800,87,-24.79,-65.41,62.6,2.24
Nalut,0,LY,1553305261,90,31.86,10.98,39.47,2.73
Tankhoy,20,RU,1553305261,76,51.55,105.12,34.43,6.42
Qasigiannguit,0,GL,1553302200,42,68.82,-51.19,-11.21,6.93
Sisimiut,0,GL,1553305158,61,66.94,-53.67,-34.88,2.73
Juan Aldama,40,MX,1553305216,42,24.94,-107.82,80.6,6.93
Arkadelphia,1,US,1553305205,54,34.12,-93.05,60.8,5.64
Vyshkov,0,RU,1553302800,64,52.48,31.69,35.6,13.42
Lerwick,88,GB,1553302200,97,60.15,-1.15,42.8,44.96
Naberera,0,TZ,1553305262,96,-4.2,36.93,59.72,2.95
Moerai,88,PF,1553305262,99,-22.43,-151.33,79.7,13.02
Paita,12,PE,1553305262,73,-5.09,-81.11,74.93,4.97
Port Moresby,40,PG,1553302800,70,-9.47,147.16,89.6,5.82
Katherine,36,AU,1553302800,74,-14.47,132.26,82.4,9.17
Bluefields,0,NI,1553305263,65,12.01,-83.77,76.28,5.97
Mahajanga,40,MG,1553302800,88,-15.72,46.32,77.0,11.41
Angoche,68,MZ,1553305263,100,-16.23,39.91,77.99,3.96
Marshall,1,US,1553304992,60,39.39,-87.69,46.0,10.45
Viedma,12,AR,1553305263,61,-40.81,-62.99,58.19,6.53
Chake Chake,44,TZ,1553305263,100,-5.25,39.77,80.96,7.76
Vanimo,48,PG,1553305263,99,-2.67,141.3,83.03,11.56
Mayuge,8,UG,1553305264,80,0.46,33.48,66.74,3.96
Anloga,20,GH,1553302800,78,5.79,0.9,82.4,6.93
Kolyvan,64,RU,1553302800,85,55.31,82.74,23.0,6.71
Onega,76,RU,1553305264,93,63.91,38.09,23.0,5.41
Karratha,92,AU,1553305264,63,-20.74,116.85,86.72,31.59
Turukhansk,76,RU,1553305264,84,65.8,87.96,23.0,4.18
Sagua la Grande,20,CU,1553302200,63,22.81,-80.07,64.4,3.36
Batagay,20,RU,1553304969,54,67.65,134.64,9.32,4.29
Gizo,75,IL,1553305183,93,31.8,34.94,57.0,3.36
Beyneu,36,KZ,1553304973,84,45.32,55.19,33.8,2.95
Luau,20,CD,1553305265,85,-10.7,22.23,65.75,3.06
Awjilah,0,LY,1553305265,66,29.14,21.3,63.05,7.65
Chaozhou,90,CN,1553302800,100,23.66,116.62,60.8,8.95
Marsh Harbour,0,BS,1553305042,100,26.54,-77.06,71.24,9.22
Umm Lajj,24,SA,1553305265,100,25.02,37.27,60.08,5.3
Pevek,0,RU,1553305265,76,69.7,170.27,-3.38,2.62
Khorramshahr,20,IR,1553302800,48,30.43,48.18,62.6,6.93
Coahuayana,48,MX,1553305264,43,18.62,-100.35,69.44,4.07
Baykit,76,RU,1553305266,80,61.68,96.39,25.07,10.67
Vestmanna,56,FO,1553304000,64,62.16,-7.17,37.4,28.86
Mount Isa,75,AU,1553302800,51,-20.73,139.49,86.0,18.34
Naifaru,68,MV,1553305266,94,5.44,73.37,85.82,8.99
Garowe,92,SO,1553305266,92,8.41,48.48,68.0,6.76
Silleda,0,ES,1553305249,75,42.7,-8.25,54.0,2.06
Gushikawa,90,JP,1553304787,68,26.35,127.87,71.6,8.05
Urgut,68,UZ,1553305267,91,39.41,67.25,43.7,3.4
Andapa,24,MG,1553305267,95,-14.66,49.65,68.18,2.06
Evensk,8,RU,1553305267,100,61.92,159.24,25.88,13.69
Honningsvag,80,NO,1553305267,92,70.98,25.97,35.15,24.2
Marsa Matruh,40,EG,1553302800,87,31.35,27.25,60.8,5.82
Dzhebariki-Khaya,0,RU,1553305267,51,62.22,135.8,4.55,3.4
Klaksvik,48,FO,1553304000,64,62.23,-6.59,37.4,28.86
San Patricio,0,PY,1553305268,83,-26.98,-56.83,61.25,2.73
Luderitz,0,NA,1553305268,92,-26.65,15.16,57.11,7.87
Chernyshevskiy,80,RU,1553305268,83,63.01,112.47,23.18,4.41
Berezovyy,8,RU,1553305268,58,51.67,135.7,18.32,3.62
Dzerzhinsk,0,RU,1553302800,74,56.24,43.46,33.8,4.47
Havelock,1,US,1553305060,47,34.88,-76.9,59.0,10.29
Conceicao da Barra,92,BR,1553305268,100,-18.59,-39.73,76.55,15.7
Xiuyan,0,CN,1553305269,37,40.29,123.27,37.85,12.24
Mizan Teferi,88,ET,1553305267,92,6.99,35.58,61.7,2.62
Jasdan,0,IN,1553304871,45,22.04,71.2,79.0,9.22
Nanakuli,1,US,1553305187,39,21.39,-158.15,84.2,8.05
Sabaudia,5,IT,1553305264,87,41.3,13.03,55.0,2.24
Bhag,0,PK,1553305269,78,29.04,67.82,65.12,7.31
Novobataysk,40,RU,1553302800,86,46.9,39.78,37.4,13.42
Kauhajoki,92,FI,1553305255,64,62.43,22.18,37.99,7.0
Lixourion,0,GR,1553304655,59,38.2,20.43,55.0,8.77
Puerto Leguizamo,0,CO,1553305270,96,-0.19,-74.78,73.94,1.83
Dawlatabad,88,AF,1553305270,93,36.41,64.91,48.38,5.41
North Platte,90,US,1553304979,53,41.12,-100.77,51.8,12.75
Molepolole,0,BW,1553302800,56,-24.41,25.52,73.4,13.87
Hoquiam,90,US,1553305265,87,46.98,-123.89,52.0,9.17
Howick,32,ZA,1553304941,95,-29.48,30.22,64.0,5.97
Juneau,90,US,1553302560,75,58.3,-134.42,48.2,1.39
Belyye Berega,88,RU,1553305271,78,53.21,34.66,32.63,19.73
Surt,92,LY,1553305271,100,31.21,16.59,58.28,4.97
Surgut,90,RU,1553302800,100,61.25,73.4,24.8,6.71
Ouahigouya,56,BF,1553305271,20,13.58,-2.42,74.57,7.09
Creel,0,MX,1553305271,30,27.75,-107.63,45.68,4.07
Fukue,75,JP,1553305184,39,35.03,136.69,48.99,23.04
Seoul,75,KR,1553303400,52,37.57,126.98,44.6,3.36
Katangli,44,RU,1553305271,98,51.71,143.23,18.23,15.7
Kjollefjord,88,NO,1553305272,87,70.95,27.35,31.91,20.96
Sterling,20,US,1553305265,44,39.0,-77.4,43.0,24.16
Tezu,92,IN,1553305112,100,27.93,96.16,52.25,1.61
Auki,20,NG,1553305272,65,12.18,6.51,68.09,2.73
Maraa,8,BR,1553305272,90,-1.83,-65.37,78.17,3.18
Cervo,80,BR,1553305272,96,-22.19,-46.24,62.42,4.41
Gorgan,0,IR,1553302800,100,36.84,54.43,37.4,2.06
Sarrebourg,0,FR,1553305030,80,48.73,7.05,41.0,3.36
Nangomba,92,TZ,1553305273,95,-10.9,38.52,73.58,1.95
Paracatu,92,BR,1553305273,98,-17.22,-46.87,70.16,6.64
Esna,0,RO,1553305273,79,45.2,27.57,44.33,11.12
Klaeng,0,TH,1553305107,71,12.78,101.65,91.99,11.01
Mansa,0,IN,1553302800,40,23.43,72.66,68.0,3.36
Phalodi,0,IN,1553305273,46,27.13,72.36,69.17,9.22
Codrington,0,AU,1553305094,62,-28.95,153.24,86.0,10.29
Najran,0,SA,1553302800,30,17.54,44.22,69.8,3.4
Hokitika,0,NZ,1553305274,93,-42.72,170.96,65.48,4.63
Okhotsk,56,RU,1553305274,76,59.36,143.24,28.4,3.4
Desaguadero,0,PE,1553305274,91,-16.56,-69.04,38.3,3.4
Sarangani,20,PH,1553305274,94,5.4,125.46,82.04,8.99
Celestun,0,MX,1553305274,100,20.87,-90.4,75.29,18.16
Alofi,40,NU,1553302800,62,-19.06,-169.92,84.2,11.41
Tanabe,75,JP,1553305021,39,33.73,135.39,51.01,11.41
Katangi,0,IN,1553305275,36,21.77,79.8,78.8,7.2
Senador Jose Porfirio,56,BR,1553305275,88,-2.59,-51.95,78.89,5.64
Bala,92,SN,1553305275,42,14.02,-13.17,77.27,5.75
Lang Son,92,VN,1553305275,81,21.83,106.73,64.4,15.03
Mecca,0,SA,1553305054,67,21.43,39.83,55.04,2.62
Okmulgee,40,US,1553305155,41,35.62,-95.96,64.4,4.7
Truth or Consequences,1,US,1553304630,10,33.13,-107.25,66.2,14.99
Bitkine,0,TD,1553305276,56,11.98,18.21,69.98,2.95
Kaspiysk,0,RU,1553302800,70,42.88,47.64,35.6,6.71
Barguzin,76,RU,1553305276,66,53.62,109.63,23.72,4.07
Rybnoye,88,RU,1553305276,89,51.99,47.24,25.34,3.4
Boa Vista,0,BR,1553302800,40,2.82,-60.67,89.6,12.75
Atar,76,MR,1553305276,55,20.52,-13.05,73.22,15.14
Muravlenko,56,RU,1553305277,74,63.79,74.5,13.73,3.06
Paragominas,88,BR,1553305277,98,-3.0,-47.35,72.32,3.29
Barabai,48,ID,1553305277,83,-2.59,115.38,83.03,2.73
Arona,0,IT,1553305264,69,45.76,8.56,52.0,8.05
Alice Springs,0,AU,1553302800,20,-23.7,133.88,96.8,14.99
Kaifeng,0,CN,1553302800,39,34.8,114.35,50.0,17.9
Kirakira,8,SB,1553305277,100,-10.46,161.92,85.1,6.42
Nushki,88,PK,1553305277,69,29.55,66.02,57.29,4.18
Caranavi,92,BO,1553305278,92,-15.83,-67.57,66.29,2.17
Linares,0,CL,1553305278,80,-35.85,-71.6,48.29,1.5
Teguldet,92,RU,1553305278,84,57.31,88.17,29.39,2.62
Boundiali,44,CI,1553305278,75,9.53,-6.48,73.76,4.97
Russell,0,AR,1553302800,56,-33.01,-68.8,68.0,3.36
Shelbyville,1,US,1553305216,73,39.41,-88.79,48.2,3.36
Tecozautla,75,MX,1553302320,28,20.53,-99.63,71.6,4.7
